[
  { "key": "sensoji", "name": "Senso-ji (Asakusa)", "city": "Tokyo", "cat": "temple", "lat": 35.7148, "lon": 139.7967, "en": "Tokyo's oldest temple, Nakamise street & Kaminarimon gate.", "de": "Tokios ältester Tempel, Nakamise-Gasse & Kaminarimon-Tor." },
  { "key": "meiji", "name": "Meiji Jingu", "city": "Tokyo", "cat": "shrine", "lat": 35.6764, "lon": 139.6993, "en": "Forest shrine beside Harajuku, calm amid the city.", "de": "Waldschrein neben Harajuku, Ruhe mitten in der Stadt." },
  { "key": "shibuya", "name": "Shibuya Crossing", "city": "Tokyo", "cat": "city", "lat": 35.6595, "lon": 139.7005, "en": "The famous scramble crossing and Hachiko statue.", "de": "Die berühmte Kreuzung und die Hachiko-Statue." },
  { "key": "teamlab", "name": "teamLab Planets", "city": "Tokyo", "cat": "art", "lat": 35.6497, "lon": 139.7906, "en": "Immersive digital-art museum in Toyosu (book ahead).", "de": "Immersives Digital-Kunst-Museum in Toyosu (vorbuchen)." },
  { "key": "skytree", "name": "Tokyo Skytree", "city": "Tokyo", "cat": "city", "lat": 35.7101, "lon": 139.8107, "en": "634 m tower with sweeping views over the Kanto plain.", "de": "634-m-Turm mit weitem Blick über die Kanto-Ebene." },
  { "key": "tsukiji", "name": "Tsukiji Outer Market", "city": "Tokyo", "cat": "food", "lat": 35.6654, "lon": 139.7707, "en": "Street-food stalls: tamago, uni, fresh sushi.", "de": "Streetfood-Stände: Tamago, Uni, frisches Sushi." },
  { "key": "fushimi", "name": "Fushimi Inari Taisha", "city": "Kyoto", "cat": "shrine", "lat": 34.9671, "lon": 135.7727, "en": "Thousands of vermilion torii up the mountain.", "de": "Tausende zinnoberrote Torii den Berg hinauf." },
  { "key": "kinkakuji", "name": "Kinkaku-ji (Golden Pavilion)", "city": "Kyoto", "cat": "temple", "lat": 35.0394, "lon": 135.7292, "en": "Gold-leaf pavilion mirrored in its pond.", "de": "Mit Blattgold belegter Pavillon, gespiegelt im Teich." },
  { "key": "arashiyama", "name": "Arashiyama Bamboo Grove", "city": "Kyoto", "cat": "nature", "lat": 35.0170, "lon": 135.6717, "en": "Towering bamboo path; go early to beat crowds.", "de": "Hoher Bambuspfad; früh kommen wegen der Menge." },
  { "key": "kiyomizu", "name": "Kiyomizu-dera", "city": "Kyoto", "cat": "temple", "lat": 34.9949, "lon": 135.7850, "en": "Hillside temple with a huge wooden veranda.", "de": "Hangtempel mit riesiger Holzterrasse." },
  { "key": "gion", "name": "Gion", "city": "Kyoto", "cat": "city", "lat": 35.0037, "lon": 135.7752, "en": "Historic geisha district of wooden machiya.", "de": "Historisches Geisha-Viertel mit Holz-Machiya." },
  { "key": "nijo", "name": "Nijo Castle", "city": "Kyoto", "cat": "castle", "lat": 35.0142, "lon": 135.7481, "en": "Shogun's castle with 'nightingale' floors.", "de": "Shogun-Burg mit 'Nachtigallen'-Böden." },
  { "key": "osakajo", "name": "Osaka Castle", "city": "Osaka", "cat": "castle", "lat": 34.6873, "lon": 135.5259, "en": "Landmark castle set in a large park.", "de": "Wahrzeichen-Burg in einem großen Park." },
  { "key": "dotonbori", "name": "Dotonbori", "city": "Osaka", "cat": "food", "lat": 34.6687, "lon": 135.5013, "en": "Neon canal-side street; takoyaki & okonomiyaki.", "de": "Neon-Kanalstraße; Takoyaki & Okonomiyaki." },
  { "key": "shinsekai", "name": "Shinsekai & Tsutenkaku", "city": "Osaka", "cat": "city", "lat": 34.6524, "lon": 135.5063, "en": "Retro district famous for kushikatsu.", "de": "Retro-Viertel, bekannt für Kushikatsu." },
  { "key": "usj", "name": "Universal Studios Japan", "city": "Osaka", "cat": "city", "lat": 34.6654, "lon": 135.4323, "en": "Theme park incl. Super Nintendo World.", "de": "Freizeitpark inkl. Super Nintendo World." },
  { "key": "narapark", "name": "Nara Park (deer)", "city": "Nara", "cat": "nature", "lat": 34.6851, "lon": 135.8430, "en": "Free-roaming bowing deer in a wide park.", "de": "Frei laufende, sich verbeugende Rehe im Park." },
  { "key": "todaiji", "name": "Todai-ji", "city": "Nara", "cat": "temple", "lat": 34.6890, "lon": 135.8398, "en": "Great Buddha Hall — vast bronze Daibutsu.", "de": "Halle des Großen Buddha — riesiger Bronze-Daibutsu." },
  { "key": "peacepark", "name": "Peace Memorial Park", "city": "Hiroshima", "cat": "city", "lat": 34.3955, "lon": 132.4536, "en": "A-Bomb Dome, museum & cenotaph.", "de": "Atombombenkuppel, Museum & Kenotaph." },
  { "key": "miyajima", "name": "Itsukushima Shrine (Miyajima)", "city": "Hiroshima", "cat": "shrine", "lat": 34.2960, "lon": 132.3199, "en": "Floating torii on a sacred island.", "de": "Schwebendes Torii auf heiliger Insel." },
  { "key": "owakudani", "name": "Owakudani (Hakone)", "city": "Hakone", "cat": "nature", "lat": 35.2445, "lon": 139.0193, "en": "Volcanic valley, ropeway & black eggs.", "de": "Vulkantal, Seilbahn & schwarze Eier." },
  { "key": "hakoneshrine", "name": "Hakone Shrine / Lake Ashi", "city": "Hakone", "cat": "shrine", "lat": 35.2043, "lon": 139.0269, "en": "Lakeside torii with Mt. Fuji views on clear days.", "de": "Torii am See mit Fuji-Blick bei klarem Wetter." },
  { "key": "toshogu", "name": "Toshogu Shrine (Nikko)", "city": "Nikko", "cat": "shrine", "lat": 36.7581, "lon": 139.5989, "en": "Ornate shrine in cedar forest, a UNESCO site.", "de": "Prunkvoller Schrein im Zedernwald, UNESCO-Welterbe." },
  { "key": "kenrokuen", "name": "Kenroku-en", "city": "Kanazawa", "cat": "park", "lat": 36.5620, "lon": 136.6626, "en": "One of Japan's three great landscape gardens.", "de": "Einer der drei großen Landschaftsgärten Japans." },
  { "key": "higashichaya", "name": "Higashi Chaya District", "city": "Kanazawa", "cat": "city", "lat": 36.5720, "lon": 136.6660, "en": "Preserved teahouse streets & gold-leaf shops.", "de": "Erhaltene Teehaus-Gassen & Blattgold-Läden." },
  { "key": "takayama", "name": "Takayama Old Town", "city": "Takayama", "cat": "city", "lat": 36.1408, "lon": 137.2530, "en": "Edo-era merchant streets in the Hida mountains.", "de": "Kaufmannsgassen der Edo-Zeit in den Hida-Bergen." },
  { "key": "okunoin", "name": "Okunoin (Koyasan)", "city": "Koyasan", "cat": "temple", "lat": 34.2158, "lon": 135.5980, "en": "Vast forest cemetery & pilgrimage site.", "de": "Riesiger Waldfriedhof & Pilgerstätte." },
  { "key": "chureito", "name": "Chureito Pagoda", "city": "Fujiyoshida", "cat": "nature", "lat": 35.5003, "lon": 138.8005, "en": "Iconic pagoda-and-Mt-Fuji viewpoint.", "de": "Ikonischer Blick auf Pagode und Fuji." },
  { "key": "kawaguchiko", "name": "Lake Kawaguchiko", "city": "Fujikawaguchiko", "cat": "nature", "lat": 35.5171, "lon": 138.7530, "en": "Classic Mt. Fuji reflections and onsen.", "de": "Klassische Fuji-Spiegelungen und Onsen." },
  { "key": "dazaifu", "name": "Dazaifu Tenmangu", "city": "Fukuoka", "cat": "shrine", "lat": 33.5216, "lon": 130.5348, "en": "Shrine of learning; famed plum blossoms.", "de": "Schrein des Lernens; berühmte Pflaumenblüte." },
  { "key": "otaru", "name": "Otaru Canal", "city": "Otaru", "cat": "city", "lat": 43.1979, "lon": 140.9947, "en": "Gas-lit canal, glassware & fresh seafood.", "de": "Gaslicht-Kanal, Glaskunst & frische Meeresfrüchte." }
]
